{
	"type" : "FeatureCollection",
	"name" : "LabelPoint",
	"features" : [
		{
			"type" : "Feature",
			"geometry" : {
				"type" : "Point",
				"coordinates" : [ 145.2114891388, -16.0476019977 ]
			},
			"properties" : {
				"Name" : "Q1 Far North QLD",
				"description" : "Q1 Far North QLD",
				"title" : "Q1 Far North QLD",
				"_inside_x" : 145.211489138842,
				"_inside_y" : -16.2268746031268
			}
		},
		{
			"type" : "Feature",
			"geometry" : {
				"type" : "Point",
				"coordinates" : [ 144.0620729997, -19.0699436046 ]
			},
			"properties" : {
				"Name" : "Q2 North Qld Clean Energy Hub",
				"description" : "Q2 North Qld Clean Energy Hub",
				"title" : "Q2 North Qld Clean Energy Hub",
				"_inside_x" : 144.06207299970998,
				"_inside_y" : -19.0549415854608
			}
		},
		{
			"type" : "Feature",
			"geometry" : {
				"type" : "Point",
				"coordinates" : [ 146.3314822404, -19.1953880143 ]
			},
			"properties" : {
				"Name" : "Q3 Northern Qld",
				"description" : "Q3 Northern Qld",
				"title" : "Q3 Northern Qld",
				"_inside_x" : 146.449782570259,
				"_inside_y" : -19.19538801427995
			}
		},
		{
			"type" : "Feature",
			"geometry" : {
				"type" : "Point",
				"coordinates" : [ 148.7318189692, -21.786102386 ]
			},
			"properties" : {
				"Name" : "Q4 Isaac",
				"description" : "Q4 Isaac",
				"title" : "Q4 Isaac",
				"_inside_x" : 148.7318189692435,
				"_inside_y" : -21.46076062689935
			}
		},
		{
			"type" : "Feature",
			"geometry" : {
				"type" : "Point",
				"coordinates" : [ 145.5958922353, -22.8667933251 ]
			},
			"properties" : {
				"Name" : "Q5 Barcaldine",
				"description" : "Q5 Barcaldine",
				"title" : "Q5 Barcaldine",
				"_inside_x" : 145.595892235324,
				"_inside_y" : -22.866104697056798
			}
		},
		{
			"type" : "Feature",
			"geometry" : {
				"type" : "Point",
				"coordinates" : [ 150.6759168381, -23.9594654902 ]
			},
			"properties" : {
				"Name" : "Q6 Fitzroy",
				"description" : "Q6 Fitzroy",
				"title" : "Q6 Fitzroy",
				"_inside_x" : 150.675916838088,
				"_inside_y" : -23.90778875276625
			}
		},
		{
			"type" : "Feature",
			"geometry" : {
				"type" : "Point",
				"coordinates" : [ 152.5738918792, -25.7854140174 ]
			},
			"properties" : {
				"Name" : "Q7 Wide Bay",
				"description" : "Q7 Wide Bay",
				"title" : "Q7 Wide Bay",
				"_inside_x" : 152.57389187922752,
				"_inside_y" : -25.76450311832535
			}
		},
		{
			"type" : "Feature",
			"geometry" : {
				"type" : "Point",
				"coordinates" : [ 151.1297091957, -27.5062713895 ]
			},
			"properties" : {
				"Name" : "Q8 Darling Downs",
				"description" : "Q8 Darling Downs",
				"title" : "Q8 Darling Downs",
				"_inside_x" : 151.1297091956615,
				"_inside_y" : -27.5235371055612
			}
		},
		{
			"type" : "Feature",
			"geometry" : {
				"type" : "Point",
				"coordinates" : [ 149.2536639819, -24.6955225157 ]
			},
			"properties" : {
				"Name" : "Q9 Banana",
				"description" : "Q9 Banana",
				"title" : "Q9 Banana",
				"_inside_x" : 149.9148587672675,
				"_inside_y" : -24.695522515746802
			}
		},
		{
			"type" : "Feature",
			"geometry" : {
				"type" : "Point",
				"coordinates" : [ 149.8131933644, -29.8862726485 ]
			},
			"properties" : {
				"Name" : "N1 North West NSW",
				"description" : "N1 North West NSW",
				"title" : "N1 North West NSW",
				"_inside_x" : 149.8131933643715,
				"_inside_y" : -29.8859034544768
			}
		},
		{
			"type" : "Feature",
			"geometry" : {
				"type" : "Point",
				"coordinates" : [ 151.7724651112, -30.2625440117 ]
			},
			"properties" : {
				"Name" : "N2 New England",
				"description" : "N2 New England",
				"title" : "N2 New England",
				"_inside_x" : 151.7724651112225,
				"_inside_y" : -30.25932957368105
			}
		},
		{
			"type" : "Feature",
			"geometry" : {
				"type" : "Point",
				"coordinates" : [ 149.1353745306, -32.2389263079 ]
			},
			"properties" : {
				"Name" : "N3 Central-West Orana",
				"description" : "N3 Central-West Orana",
				"title" : "N3 Central-West Orana",
				"_inside_x" : 149.13537453060098,
				"_inside_y" : -32.24255677361615
			}
		},
		{
			"type" : "Feature",
			"geometry" : {
				"type" : "Point",
				"coordinates" : [ 141.425731473, -31.9951264145 ]
			},
			"properties" : {
				"Name" : "N4 Broken Hill",
				"description" : "N4 Broken Hill",
				"title" : "N4 Broken Hill",
				"_inside_x" : 141.4257314729895,
				"_inside_y" : -32.0008662498555
			}
		},
		{
			"type" : "Feature",
			"geometry" : {
				"type" : "Point",
				"coordinates" : [ 144.3083359598, -34.6334990143 ]
			},
			"properties" : {
				"Name" : "N5 South West NSW",
				"description" : "N5 South West NSW",
				"title" : "N5 South West NSW",
				"_inside_x" : 143.900436201462,
				"_inside_y" : -34.633499014268054
			}
		},
		{
			"type" : "Feature",
			"geometry" : {
				"type" : "Point",
				"coordinates" : [ 146.9664445471, -35.1566267178 ]
			},
			"properties" : {
				"Name" : "N6 Wagga Wagga",
				"description" : "N6 Wagga Wagga",
				"title" : "N6 Wagga Wagga",
				"_inside_x" : 146.964652714254,
				"_inside_y" : -35.1566267177667
			}
		},
		{
			"type" : "Feature",
			"geometry" : {
				"type" : "Point",
				"coordinates" : [ 148.5311043358, -35.6805458193 ]
			},
			"properties" : {
				"Name" : "N7 Tumut",
				"description" : "N7 Tumut",
				"title" : "N7 Tumut",
				"_inside_x" : 148.5311043358335,
				"_inside_y" : -35.6804897539484
			}
		},
		{
			"type" : "Feature",
			"geometry" : {
				"type" : "Point",
				"coordinates" : [ 149.4153095088, -36.3055476805 ]
			},
			"properties" : {
				"Name" : "N8 Cooma-Monaro",
				"description" : "N8 Cooma-Monaro",
				"title" : "N8 Cooma-Monaro",
				"_inside_x" : 149.41530950875648,
				"_inside_y" : -36.30409601453445
			}
		},
		{
			"type" : "Feature",
			"geometry" : {
				"type" : "Point",
				"coordinates" : [ 146.9284445846, -36.7887592299 ]
			},
			"properties" : {
				"Name" : "V1 Ovens Murray",
				"description" : "V1 Ovens Murray",
				"title" : "V1 Ovens Murray",
				"_inside_x" : 146.8474839887645,
				"_inside_y" : -36.78875922991335
			}
		},
		{
			"type" : "Feature",
			"geometry" : {
				"type" : "Point",
				"coordinates" : [ 143.2054448605, -35.4093655881 ]
			},
			"properties" : {
				"Name" : "V2 Murray River",
				"description" : "V2 Murray River",
				"title" : "V2 Murray River",
				"_inside_x" : 143.2054448605235,
				"_inside_y" : -35.3882005030723
			}
		},
		{
			"type" : "Feature",
			"geometry" : {
				"type" : "Point",
				"coordinates" : [ 142.591635578, -36.8014843031 ]
			},
			"properties" : {
				"Name" : "V3 Western Victoria",
				"description" : "V3 Western Victoria",
				"title" : "V3 Western Victoria",
				"_inside_x" : 142.6768695568755,
				"_inside_y" : -36.8014843030767
			}
		},
		{
			"type" : "Feature",
			"geometry" : {
				"type" : "Point",
				"coordinates" : [ 142.5416904109, -38.094674257 ]
			},
			"properties" : {
				"Name" : "V4 South West Victoria",
				"description" : "V4 South West Victoria",
				"title" : "V4 South West Victoria",
				"_inside_x" : 142.56762021250148,
				"_inside_y" : -38.094674257032295
			}
		},
		{
			"type" : "Feature",
			"geometry" : {
				"type" : "Point",
				"coordinates" : [ 146.9542202064, -38.1607468352 ]
			},
			"properties" : {
				"Name" : "V5 Gippsland",
				"description" : "V5 Gippsland",
				"title" : "V5 Gippsland",
				"_inside_x" : 147.04053717731398,
				"_inside_y" : -38.160746835221246
			}
		},
		{
			"type" : "Feature",
			"geometry" : {
				"type" : "Point",
				"coordinates" : [ 145.328670506, -36.4945537756 ]
			},
			"properties" : {
				"Name" : "V6 Central North Vic",
				"description" : "V6 Central North Vic",
				"title" : "V6 Central North Vic",
				"_inside_x" : 145.29298567000598,
				"_inside_y" : -36.494553775561656
			}
		},
		{
			"type" : "Feature",
			"geometry" : {
				"type" : "Point",
				"coordinates" : [ 140.1159719296, -36.4605547478 ]
			},
			"properties" : {
				"Name" : "S1 South East SA",
				"description" : "S1 South East SA",
				"title" : "S1 South East SA",
				"_inside_x" : 140.115971929611,
				"_inside_y" : -36.5762534051891
			}
		},
		{
			"type" : "Feature",
			"geometry" : {
				"type" : "Point",
				"coordinates" : [ 140.0674172661, -34.0880810927 ]
			},
			"properties" : {
				"Name" : "S2 Riverland",
				"description" : "S2 Riverland",
				"title" : "S2 Riverland",
				"_inside_x" : 140.1277520002795,
				"_inside_y" : -34.0880810926879
			}
		},
		{
			"type" : "Feature",
			"geometry" : {
				"type" : "Point",
				"coordinates" : [ 138.8981362797, -33.4865933764 ]
			},
			"properties" : {
				"Name" : "S3 Mid-North SA",
				"description" : "S3 Mid-North SA",
				"title" : "S3 Mid-North SA",
				"_inside_x" : 138.8981362796955,
				"_inside_y" : -33.4791298028506
			}
		},
		{
			"type" : "Feature",
			"geometry" : {
				"type" : "Point",
				"coordinates" : [ 137.5452214026, -34.597854123 ]
			},
			"properties" : {
				"Name" : "S4 Yorke Peninsula",
				"description" : "S4 Yorke Peninsula",
				"title" : "S4 Yorke Peninsula",
				"_inside_x" : 137.54522140263998,
				"_inside_y" : -34.53508044199285
			}
		},
		{
			"type" : "Feature",
			"geometry" : {
				"type" : "Point",
				"coordinates" : [ 137.7015465751, -32.6069107674 ]
			},
			"properties" : {
				"Name" : "S5 Northern SA",
				"description" : "S5 Northern SA",
				"title" : "S5 Northern SA",
				"_inside_x" : 137.7015465750665,
				"_inside_y" : -32.742736396661
			}
		},
		{
			"type" : "Feature",
			"geometry" : {
				"type" : "Point",
				"coordinates" : [ 138.8032663045, -30.6451327817 ]
			},
			"properties" : {
				"Name" : "S6 Leigh Creek",
				"description" : "S6 Leigh Creek",
				"title" : "S6 Leigh Creek",
				"_inside_x" : 138.8032663044745,
				"_inside_y" : -30.646051769219852
			}
		},
		{
			"type" : "Feature",
			"geometry" : {
				"type" : "Point",
				"coordinates" : [ 136.489318423, -30.5787752266 ]
			},
			"properties" : {
				"Name" : "S7 Roxby Downs",
				"description" : "S7 Roxby Downs",
				"title" : "S7 Roxby Downs",
				"_inside_x" : 136.489829427826,
				"_inside_y" : -30.57877522660005
			}
		},
		{
			"type" : "Feature",
			"geometry" : {
				"type" : "Point",
				"coordinates" : [ 136.2874233801, -33.5390726751 ]
			},
			"properties" : {
				"Name" : "S8 Eastern Eyre Peninsula",
				"description" : "S8 Eastern Eyre Peninsula",
				"title" : "S8 Eastern Eyre Peninsula",
				"_inside_x" : 136.2874233800635,
				"_inside_y" : -33.8473450587712
			}
		},
		{
			"type" : "Feature",
			"geometry" : {
				"type" : "Point",
				"coordinates" : [ 134.7686127835, -32.9546541837 ]
			},
			"properties" : {
				"Name" : "S9 Western Eyre Peninsula",
				"description" : "S9 Western Eyre Peninsula",
				"title" : "S9 Western Eyre Peninsula",
				"_inside_x" : 134.768612783496,
				"_inside_y" : -33.22683798183685
			}
		},
		{
			"type" : "Feature",
			"geometry" : {
				"type" : "Point",
				"coordinates" : [ 147.6220632774, -41.0055006038 ]
			},
			"properties" : {
				"Name" : "T1 North-East Tasmania",
				"description" : "T1 North-East Tasmania",
				"title" : "T1 North-East Tasmania",
				"_inside_x" : 147.6194920626725,
				"_inside_y" : -41.0055006037521
			}
		},
		{
			"type" : "Feature",
			"geometry" : {
				"type" : "Point",
				"coordinates" : [ 145.5314266122, -41.4185754923 ]
			},
			"properties" : {
				"Name" : "T2 North-West Tasmania",
				"description" : "T2 North-West Tasmania",
				"title" : "T2 North-West Tasmania",
				"_inside_x" : 145.5371876082695,
				"_inside_y" : -41.418575492335805
			}
		},
		{
			"type" : "Feature",
			"geometry" : {
				"type" : "Point",
				"coordinates" : [ 147.0288638714, -42.0750103997 ]
			},
			"properties" : {
				"Name" : "T3 Central Highlands",
				"description" : "T3 Central Highlands",
				"title" : "T3 Central Highlands",
				"_inside_x" : 147.0123458069085,
				"_inside_y" : -42.07501039966685
			}
		},
		{
			"type" : "Feature",
			"geometry" : {
				"type" : "Point",
				"coordinates" : [ 139.6410403373, -37.3326886482 ]
			},
			"properties" : {
				"Name" : "O6 South East SA Coast",
				"description" : "O6 South East SA Coast",
				"title" : "O6 South East SA Coast",
				"_inside_x" : 139.6410403373045,
				"_inside_y" : -37.06611272017205
			}
		},
		{
			"type" : "Feature",
			"geometry" : {
				"type" : "Point",
				"coordinates" : [ 141.4663655352, -38.4718450281 ]
			},
			"properties" : {
				"Name" : "O5 Portland Coast",
				"description" : "O5 Portland Coast",
				"title" : "O5 Portland Coast",
				"_inside_x" : 141.4666123895995,
				"_inside_y" : -38.471845028119446
			}
		},
		{
			"type" : "Feature",
			"geometry" : {
				"type" : "Point",
				"coordinates" : [ 145.6182971869, -40.7358849983 ]
			},
			"properties" : {
				"Name" : "O4 North West Tasmanian Coast",
				"description" : "O4 North West Tasmanian Coast",
				"title" : "O4 North West Tasmanian Coast",
				"_inside_x" : 145.56996405123,
				"_inside_y" : -40.73588499829765
			}
		},
		{
			"type" : "Feature",
			"geometry" : {
				"type" : "Point",
				"coordinates" : [ 147.3718989963, -38.5422571954 ]
			},
			"properties" : {
				"Name" : "O3 Gippsland Coast",
				"description" : "O3 Gippsland Coast",
				"title" : "O3 Gippsland Coast",
				"_inside_x" : 147.2227053508525,
				"_inside_y" : -38.5422571954329
			}
		},
		{
			"type" : "Feature",
			"geometry" : {
				"type" : "Point",
				"coordinates" : [ 151.0379391644, -34.6149290912 ]
			},
			"properties" : {
				"Name" : "O2 Illawarra Coast",
				"description" : "O2 Illawarra Coast",
				"title" : "O2 Illawarra Coast",
				"_inside_x" : 151.0379391644085,
				"_inside_y" : -34.663113486535195
			}
		},
		{
			"type" : "Feature",
			"geometry" : {
				"type" : "Point",
				"coordinates" : [ 151.9951909672, -33.1165401626 ]
			},
			"properties" : {
				"Name" : "O1 Hunter Coast",
				"description" : "O1 Hunter Coast",
				"title" : "O1 Hunter Coast",
				"_inside_x" : 151.99519096720002,
				"_inside_y" : -33.131567363272794
			}
		}
	]
}